[
  {
    "name": "SENNS.Restaurant",
    "year": 2019,
    "latitude": 47.83636,
    "longitude": 13.06389,
    "city": "Salzburg",
    "region": "Austria",
    "zipCode": 5020,
    "cuisine": "Creative",
    "price": "$$$$$",
    "url": "https://guide.michelin.com/at/en/salzburg-region/salzburg/restaurant/senns-restaurant"
  },
  {
    "name": "Ikarus",
    "year": 2019,
    "latitude": 47.79536,
    "longitude": 13.00695,
    "city": "Salzburg",
    "region": "Austria",
    "zipCode": 5020,
    "cuisine": "Creative",
    "price": "$$$$$",
    "url": "https://guide.michelin.com/at/en/salzburg-region/salzburg/restaurant/ikarus"
  },
  {
    "name": "Mraz & Sohn",
    "year": 2019,
    "latitude": 48.23129,
    "longitude": 16.37637,
    "city": "Wien",
    "region": "Austria",
    "zipCode": 1200,
    "cuisine": "Creative",
    "price": "$$$$$",
    "url": "https://guide.michelin.com/at/en/vienna/wien/restaurant/mraz-sohn"
  },
  {
    "name": "Konstantin Filippou",
    "year": 2019,
    "latitude": 48.21056,
    "longitude": 16.37996,
    "city": "Wien",
    "region": "Austria",
    "zipCode": 1010,
    "cuisine": "Modern cuisine",
    "price": "$$$$$",
    "url": "https://guide.michelin.com/at/en/vienna/wien/restaurant/konstantin-filippou"
  },
  {
    "name": "Silvio Nickol Gourmet Restaurant",
    "year": 2019,
    "latitude": 48.20558,
    "longitude": 16.37693,
    "city": "Wien",
    "region": "Austria",
    "zipCode": 1010,
    "cuisine": "Modern cuisine",
    "price": "$$$$$",
    "url": "https://guide.michelin.com/at/en/vienna/wien/restaurant/silvio-nickol-gourmet-restaurant"
  },
  {
    "name": "Steirereck im Stadtpark",
    "year": 2019,
    "latitude": 48.20229,
    "longitude": 16.3805,
    "city": "Wien",
    "region": "Austria",
    "zipCode": 1030,
    "cuisine": "Creative",
    "price": "$$$$$",
    "url": "https://guide.michelin.com/at/en/vienna/wien/restaurant/steirereck-im-stadtpark"
  },
  {
    "name": "Baumé",
    "year": 2019,
    "latitude": 37.4285,
    "longitude": -122.14272,
    "city": "South San Francisco",
    "region": "California",
    "zipCode": 94306,
    "cuisine": "Contemporary",
    "price": "$$$$",
    "url": "https://guide.michelin.com/us/en/california/south-san-francisco/restaurant/baume"
  },
  {
    "name": "Commis",
    "year": 2019,
    "latitude": 37.82476,
    "longitude": -122.25505,
    "city": "San Francisco",
    "region": "California",
    "zipCode": 94601,
    "cuisine": "Contemporary",
    "price": "$$$$",
    "url": "https://guide.michelin.com/us/en/california/san-francisco/restaurant/commis"
  },
  {
    "name": "Californios",
    "year": 2019,
    "latitude": 37.75555,
    "longitude": -122.417145,
    "city": "San Francisco",
    "region": "California",
    "zipCode": 94110,
    "cuisine": "Mexican",
    "price": "$$$$",
    "url": "https://guide.michelin.com/us/en/california/san-francisco/restaurant/californios"
  },
  {
    "name": "Lazy Bear",
    "year": 2019,
    "latitude": 37.760204,
    "longitude": -122.41969,
    "city": "San Francisco",
    "region": "California",
    "zipCode": 94110,
    "cuisine": "Contemporary",
    "price": "$$$$",
    "url": "https://guide.michelin.com/us/en/california/san-francisco/restaurant/lazy-bear"
  },
  {
    "name": "Saison",
    "year": 2019,
    "latitude": 37.76327,
    "longitude": -122.41543,
    "city": "San Francisco",
    "region": "California",
    "zipCode": 94107,
    "cuisine": "Californian",
    "price": "$$$$",
    "url": "https://guide.michelin.com/us/en/california/san-francisco/restaurant/saison"
  },
  {
    "name": "Campton Place",
    "year": 2019,
    "latitude": 37.78923,
    "longitude": -122.40665,
    "city": "San Francisco",
    "region": "California",
    "zipCode": 94108,
    "cuisine": "Indian",
    "price": "$$$$",
    "url": "https://guide.michelin.com/us/en/california/san-francisco/restaurant/campton-place"
  },
  {
    "name": "Coi",
    "year": 2019,
    "latitude": 37.79812,
    "longitude": -122.40331,
    "city": "San Francisco",
    "region": "California",
    "zipCode": 94133,
    "cuisine": "Contemporary",
    "price": "$$$$",
    "url": "https://guide.michelin.com/us/en/california/san-francisco/restaurant/coi"
  },
  {
    "name": "Acquerello",
    "year": 2019,
    "latitude": 37.79167,
    "longitude": -122.42131,
    "city": "San Francisco",
    "region": "California",
    "zipCode": 94109,
    "cuisine": "Italian",
    "price": "$$$$",
    "url": "https://guide.michelin.com/us/en/california/san-francisco/restaurant/acquerello"
  },
  {
    "name": "Urasawa",
    "year": 2019,
    "latitude": 34.067352,
    "longitude": -118.40067,
    "city": "Los Angeles",
    "region": "California",
    "zipCode": 90210,
    "cuisine": "Japanese",
    "price": "$$$$",
    "url": "https://guide.michelin.com/us/en/california/us-los-angeles/restaurant/urasawa"
  },
  {
    "name": "Sushi Ginza Onodera",
    "year": 2019,
    "latitude": 34.08238,
    "longitude": -118.37654,
    "city": "Los Angeles",
    "region": "California",
    "zipCode": "N/A",
    "cuisine": "Japanese",
    "price": "$$$$",
    "url": "https://guide.michelin.com/us/en/california/us-los-angeles/restaurant/sushi-ginza-onodera559850"
  },
  {
    "name": "Somni",
    "year": 2019,
    "latitude": 34.070095,
    "longitude": -118.37649,
    "city": "Los Angeles",
    "region": "California",
    "zipCode": 90048,
    "cuisine": "Contemporary",
    "price": "$$$$",
    "url": "https://guide.michelin.com/us/en/california/us-los-angeles/restaurant/somni"
  },
  {
    "name": "Providence",
    "year": 2019,
    "latitude": 34.083523,
    "longitude": -118.33019,
    "city": "Los Angeles",
    "region": "California",
    "zipCode": 90028,
    "cuisine": "Seafood",
    "price": "$$$$",
    "url": "https://guide.michelin.com/us/en/california/us-los-angeles/restaurant/providence"
  },
  {
    "name": "n/naka",
    "year": 2019,
    "latitude": 34.02526,
    "longitude": -118.41206,
    "city": "Los Angeles",
    "region": "California",
    "zipCode": 90034,
    "cuisine": "Contemporary",
    "price": "$$$$",
    "url": "https://guide.michelin.com/us/en/california/us-los-angeles/restaurant/n-naka"
  },
  {
    "name": "Vespertine",
    "year": 2019,
    "latitude": 34.024204,
    "longitude": -118.38166,
    "city": "Los Angeles",
    "region": "California",
    "zipCode": 90232,
    "cuisine": "Contemporary",
    "price": "$$$$",
    "url": "https://guide.michelin.com/us/en/california/us-los-angeles/restaurant/vespertine"
  },
  {
    "name": "Smyth",
    "year": 2019,
    "latitude": 41.885,
    "longitude": -87.660736,
    "city": "Chicago",
    "region": "Chicago",
    "zipCode": 60607,
    "cuisine": "Contemporary",
    "price": "$$$$",
    "url": "https://guide.michelin.com/us/en/illinois/chicago/restaurant/smyth"
  },
  {
    "name": "Oriole",
    "year": 2019,
    "latitude": 41.886196,
    "longitude": -87.64513,
    "city": "Chicago",
    "region": "Chicago",
    "zipCode": 60661,
    "cuisine": "Contemporary",
    "price": "$$$$",
    "url": "https://guide.michelin.com/us/en/illinois/chicago/restaurant/oriole"
  },
  {
    "name": "Acadia",
    "year": 2019,
    "latitude": 41.85904,
    "longitude": -87.62562,
    "city": "Chicago",
    "region": "Chicago",
    "zipCode": 60616,
    "cuisine": "Contemporary",
    "price": "$$$$",
    "url": "https://guide.michelin.com/us/en/illinois/chicago/restaurant/acadia"
  },
  {
    "name": "KOKS",
    "year": 2019,
    "latitude": 62.13667,
    "longitude": -7.022025,
    "city": "Leynar",
    "region": "Denmark",
    "zipCode": 335,
    "cuisine": "Creative",
    "price": "$$$$",
    "url": "https://guide.michelin.com/dk/en/faroe-islands/leynar/restaurant/koks558780"
  },
  {
    "name": "Henne Kirkeby Kro",
    "year": 2019,
    "latitude": 55.72682,
    "longitude": 8.242021,
    "city": "Henne",
    "region": "Denmark",
    "zipCode": 6854,
    "cuisine": "Classic cuisine",
    "price": "$$$",
    "url": "https://guide.michelin.com/dk/en/southern-denmark/henne/restaurant/henne-kirkeby-kro"
  },
  {
    "name": "a‚o‚c",
    "year": 2019,
    "latitude": 55.68305,
    "longitude": 12.58921,
    "city": "København",
    "region": "Denmark",
    "zipCode": "1302 K",
    "cuisine": "Modern cuisine",
    "price": "$$$$",
    "url": "https://guide.michelin.com/dk/en/capital-region/kobenhavn/restaurant/a%E2%80%9Ao%E2%80%9Ac"
  },
  {
    "name": "noma",
    "year": 2019,
    "latitude": 55.68332,
    "longitude": 12.61006,
    "city": "København",
    "region": "Denmark",
    "zipCode": "1432 K",
    "cuisine": "Creative",
    "price": "$$$$",
    "url": "https://guide.michelin.com/dk/en/capital-region/kobenhavn/restaurant/noma"
  },
  {
    "name": "Kadeau Copenhagen",
    "year": 2019,
    "latitude": 55.67219,
    "longitude": 12.58848,
    "city": "København",
    "region": "Denmark",
    "zipCode": "1408 K",
    "cuisine": "Modern cuisine",
    "price": "$$$$",
    "url": "https://guide.michelin.com/dk/en/capital-region/kobenhavn/restaurant/kadeau-copenhagen"
  },
  {
    "name": "Spondi",
    "year": 2019,
    "latitude": 37.96525,
    "longitude": 23.742971,
    "city": "Athína",
    "region": "Greece",
    "zipCode": "116 36",
    "cuisine": "French",
    "price": "$$$$$",
    "url": "https://guide.michelin.com/gr/en/attica/athina/restaurant/spondi"
  },
  {
    "name": "Sun Tung Lok",
    "year": 2019,
    "latitude": 22.30099,
    "longitude": 114.17221,
    "city": "Hong Kong",
    "region": "Hong Kong",
    "zipCode": "N/A",
    "cuisine": "Cantonese",
    "price": "$$",
    "url": "https://guide.michelin.com/hk/en/hong-kong-region/hong-kong/restaurant/sun-tung-lok"
  },
  {
    "name": "Yan Toh Heen",
    "year": 2019,
    "latitude": 22.293337,
    "longitude": 114.17395,
    "city": "Hong Kong",
    "region": "Hong Kong",
    "zipCode": "N/A",
    "cuisine": "Cantonese",
    "price": "$$$",
    "url": "https://guide.michelin.com/hk/en/hong-kong-region/hong-kong/restaurant/yan-toh-heen"
  },
  {
    "name": "Tin Lung Heen",
    "year": 2019,
    "latitude": 22.30357,
    "longitude": 114.16007,
    "city": "Hong Kong",
    "region": "Hong Kong",
    "zipCode": "N/A",
    "cuisine": "Cantonese",
    "price": "$$$",
    "url": "https://guide.michelin.com/hk/en/hong-kong-region/hong-kong/restaurant/tin-lung-heen"
  },
  {
    "name": "Tenku RyuGin",
    "year": 2019,
    "latitude": 22.30331,
    "longitude": 114.16021,
    "city": "Hong Kong",
    "region": "Hong Kong",
    "zipCode": "N/A",
    "cuisine": "Japanese",
    "price": "$$$$$",
    "url": "https://guide.michelin.com/hk/en/hong-kong-region/hong-kong/restaurant/tenku-ryugin"
  },
  {
    "name": "Forum",
    "year": 2019,
    "latitude": 22.281616,
    "longitude": 114.1824,
    "city": "Hong Kong",
    "region": "Hong Kong",
    "zipCode": "N/A",
    "cuisine": "Cantonese",
    "price": "$$",
    "url": "https://guide.michelin.com/hk/en/hong-kong-region/hong-kong/restaurant/forum"
  },
  {
    "name": "Sushi Saito",
    "year": 2019,
    "latitude": 22.286467,
    "longitude": 114.15677,
    "city": "Hong Kong",
    "region": "Hong Kong",
    "zipCode": "N/A",
    "cuisine": "Sushi",
    "price": "$$$$$",
    "url": "https://guide.michelin.com/hk/en/hong-kong-region/hong-kong/restaurant/sushi-saito"
  },
  {
    "name": "Pierre",
    "year": 2019,
    "latitude": 22.282127,
    "longitude": 114.15948,
    "city": "Hong Kong",
    "region": "Hong Kong",
    "zipCode": "N/A",
    "cuisine": "French contemporary",
    "price": "$$$$",
    "url": "https://guide.michelin.com/hk/en/hong-kong-region/hong-kong/restaurant/pierre"
  },
  {
    "name": "Ying Jee Club",
    "year": 2019,
    "latitude": 22.284338,
    "longitude": 114.156654,
    "city": "Hong Kong",
    "region": "Hong Kong",
    "zipCode": "N/A",
    "cuisine": "Cantonese",
    "price": "$$",
    "url": "https://guide.michelin.com/hk/en/hong-kong-region/hong-kong/restaurant/ying-jee-club"
  },
  {
    "name": "Écriture",
    "year": 2019,
    "latitude": 22.28315,
    "longitude": 114.1554,
    "city": "Hong Kong",
    "region": "Hong Kong",
    "zipCode": "N/A",
    "cuisine": "French contemporary",
    "price": "$$$",
    "url": "https://guide.michelin.com/hk/en/hong-kong-region/hong-kong/restaurant/ecriture"
  },
  {
    "name": "Ta Vie",
    "year": 2019,
    "latitude": 22.282766,
    "longitude": 114.15529,
    "city": "Hong Kong",
    "region": "Hong Kong",
    "zipCode": "N/A",
    "cuisine": "Innovative",
    "price": "$$$$$",
    "url": "https://guide.michelin.com/hk/en/hong-kong-region/hong-kong/restaurant/ta-vie"
  },
  {
    "name": "Amber",
    "year": 2019,
    "latitude": 22.280596,
    "longitude": 114.15764,
    "city": "Hong Kong",
    "region": "Hong Kong",
    "zipCode": "N/A",
    "cuisine": "French contemporary",
    "price": "$$$$",
    "url": "https://guide.michelin.com/hk/en/hong-kong-region/hong-kong/restaurant/amber569032"
  },
  {
    "name": "Kashiwaya",
    "year": 2019,
    "latitude": 22.280643,
    "longitude": 114.15674,
    "city": "Hong Kong",
    "region": "Hong Kong",
    "zipCode": "N/A",
    "cuisine": "Japanese",
    "price": "$$$$",
    "url": "https://guide.michelin.com/hk/en/hong-kong-region/hong-kong/restaurant/kashiwaya"
  },
  {
    "name": "Onyx",
    "year": 2019,
    "latitude": 47.49712,
    "longitude": 19.05067,
    "city": "Budapest",
    "region": "Hungary",
    "zipCode": 1051,
    "cuisine": "Modern cuisine",
    "price": "$$$$$",
    "url": "https://guide.michelin.com/hu/en/central-hungary/budapest/restaurant/onyx"
  },
  {
    "name": "Feng Wei Ju",
    "year": 2019,
    "latitude": 22.18996,
    "longitude": 113.54794,
    "city": "Macau",
    "region": "Macau",
    "zipCode": "N/A",
    "cuisine": "Hunanese and Sichuan",
    "price": "$",
    "url": "https://guide.michelin.com/mo/en/macau-region/macau/restaurant/feng-wei-ju"
  },
  {
    "name": "Golden Flower",
    "year": 2019,
    "latitude": 22.18753,
    "longitude": 113.54806,
    "city": "Macau",
    "region": "Macau",
    "zipCode": "N/A",
    "cuisine": "Chinese",
    "price": "$$",
    "url": "https://guide.michelin.com/mo/en/macau-region/macau/restaurant/golden-flower"
  },
  {
    "name": "Mizumi (Macau)",
    "year": 2019,
    "latitude": 22.188755,
    "longitude": 113.54488,
    "city": "Macau",
    "region": "Macau",
    "zipCode": "N/A",
    "cuisine": "Japanese",
    "price": "$$",
    "url": "https://guide.michelin.com/mo/en/macau-region/macau/restaurant/mizumi-macau"
  },
  {
    "name": "The Tasting Room",
    "year": 2019,
    "latitude": 22.14958,
    "longitude": 113.56505,
    "city": "Macau",
    "region": "Macau",
    "zipCode": "N/A",
    "cuisine": "French contemporary",
    "price": "$$$",
    "url": "https://guide.michelin.com/mo/en/macau-region/macau/restaurant/the-tasting-room"
  },
  {
    "name": "Alain Ducasse at Morpheus",
    "year": 2019,
    "latitude": 22.14293,
    "longitude": 113.563774,
    "city": "Macau",
    "region": "Macau",
    "zipCode": "N/A",
    "cuisine": "French contemporary",
    "price": "$$$$$",
    "url": "https://guide.michelin.com/mo/en/macau-region/macau/restaurant/alain-ducasse-at-morpheus"
  },
  {
    "name": "L'Atelier de Joël Robuchon",
    "year": 2019,
    "latitude": 40.742905,
    "longitude": -74.00769,
    "city": "New York",
    "region": "New York City",
    "zipCode": "N/A",
    "cuisine": "French",
    "price": "$$$$",
    "url": "https://guide.michelin.com/us/en/new-york-state/new-york/restaurant/l-atelier-de-joel-robuchon562505"
  },
  {
    "name": "Jungsik",
    "year": 2019,
    "latitude": 40.718685,
    "longitude": -74.00911,
    "city": "New York",
    "region": "New York City",
    "zipCode": 10013,
    "cuisine": "Korean",
    "price": "$$$$",
    "url": "https://guide.michelin.com/us/en/new-york-state/new-york/restaurant/jungsik"
  },
  {
    "name": "Atera",
    "year": 2019,
    "latitude": 40.716797,
    "longitude": -74.00565,
    "city": "New York",
    "region": "New York City",
    "zipCode": 10013,
    "cuisine": "Contemporary",
    "price": "$$$$",
    "url": "https://guide.michelin.com/us/en/new-york-state/new-york/restaurant/atera"
  },
  {
    "name": "Jean-Georges",
    "year": 2019,
    "latitude": 40.76907,
    "longitude": -73.98155,
    "city": "New York",
    "region": "New York City",
    "zipCode": 10023,
    "cuisine": "Contemporary",
    "price": "$$$$",
    "url": "https://guide.michelin.com/us/en/new-york-state/new-york/restaurant/jean-georges"
  },
  {
    "name": "Marea",
    "year": 2019,
    "latitude": 40.76749,
    "longitude": -73.98114,
    "city": "New York",
    "region": "New York City",
    "zipCode": 10019,
    "cuisine": "Seafood",
    "price": "$$$$",
    "url": "https://guide.michelin.com/us/en/new-york-state/new-york/restaurant/marea"
  },
  {
    "name": "Gabriel Kreuther",
    "year": 2019,
    "latitude": 40.75397,
    "longitude": -73.982025,
    "city": "New York",
    "region": "New York City",
    "zipCode": 10036,
    "cuisine": "Contemporary",
    "price": "$$$$",
    "url": "https://guide.michelin.com/us/en/new-york-state/new-york/restaurant/gabriel-kreuther"
  },
  {
    "name": "Ichimura at Uchū",
    "year": 2019,
    "latitude": 40.721832,
    "longitude": -73.99012,
    "city": "New York",
    "region": "New York City",
    "zipCode": 10002,
    "cuisine": "Japanese",
    "price": "$$$$",
    "url": "https://guide.michelin.com/us/en/new-york-state/new-york/restaurant/ichimura-at-uchu"
  },
  {
    "name": "Sushi Ginza Onodera",
    "year": 2019,
    "latitude": 40.752396,
    "longitude": -73.981575,
    "city": "New York",
    "region": "New York City",
    "zipCode": 10017,
    "cuisine": "Japanese",
    "price": "$$$$",
    "url": "https://guide.michelin.com/us/en/new-york-state/new-york/restaurant/sushi-ginza-onodera"
  },
  {
    "name": "Ko",
    "year": 2019,
    "latitude": 40.72909,
    "longitude": -73.98448,
    "city": "New York",
    "region": "New York City",
    "zipCode": 10003,
    "cuisine": "Contemporary",
    "price": "$$$$",
    "url": "https://guide.michelin.com/us/en/new-york-state/new-york/restaurant/ko"
  },
  {
    "name": "The Modern",
    "year": 2019,
    "latitude": 40.76106,
    "longitude": -73.97628,
    "city": "New York",
    "region": "New York City",
    "zipCode": 10019,
    "cuisine": "Contemporary",
    "price": "$$$$",
    "url": "https://guide.michelin.com/us/en/new-york-state/new-york/restaurant/the-modern"
  },
  {
    "name": "Aquavit",
    "year": 2019,
    "latitude": 40.76078,
    "longitude": -73.97214,
    "city": "New York",
    "region": "New York City",
    "zipCode": 10022,
    "cuisine": "Scandinavian",
    "price": "$$$$",
    "url": "https://guide.michelin.com/us/en/new-york-state/new-york/restaurant/aquavit"
  },
  {
    "name": "Daniel",
    "year": 2019,
    "latitude": 40.7666,
    "longitude": -73.96745,
    "city": "New York",
    "region": "New York City",
    "zipCode": 10065,
    "cuisine": "French",
    "price": "$$$$",
    "url": "https://guide.michelin.com/us/en/new-york-state/new-york/restaurant/daniel"
  },
  {
    "name": "Aska",
    "year": 2019,
    "latitude": 40.71222,
    "longitude": -73.96642,
    "city": "New York",
    "region": "New York City",
    "zipCode": 11249,
    "cuisine": "Scandinavian",
    "price": "$$$$",
    "url": "https://guide.michelin.com/us/en/new-york-state/new-york/restaurant/aska"
  },
  {
    "name": "Blanca",
    "year": 2019,
    "latitude": 40.70492,
    "longitude": -73.93354,
    "city": "New York",
    "region": "New York City",
    "zipCode": 11206,
    "cuisine": "Contemporary",
    "price": "$$$$",
    "url": "https://guide.michelin.com/us/en/new-york-state/new-york/restaurant/blanca"
  },
  {
    "name": "Patrick Guilbaud",
    "year": 2019,
    "latitude": 53.33893,
    "longitude": -6.25283,
    "city": "City Centre",
    "region": "Ireland",
    "zipCode": "D2",
    "cuisine": "Modern French",
    "price": "N/A",
    "url": "https://guide.michelin.com/ie/en/dublin/city-centre/restaurant/patrick-guilbaud"
  },
  {
    "name": "Oro",
    "year": 2019,
    "latitude": -22.98601,
    "longitude": -43.22471,
    "city": "Rio de Janeiro - 22441",
    "region": "Rio de Janeiro",
    "zipCode": "015",
    "cuisine": "creative",
    "price": "$$$$$",
    "url": "https://guide.michelin.com/br/en/rio-de-janeiro-region/rio-de-janeiro/restaurant/oro"
  },
  {
    "name": "Tuju",
    "year": 2019,
    "latitude": -23.55653,
    "longitude": -46.69083,
    "city": "São Paulo - 05416",
    "region": "Sao Paulo",
    "zipCode": "001",
    "cuisine": "creative",
    "price": "$$$$$",
    "url": "https://guide.michelin.com/br/en/sao-paulo-region/sao-paulo/restaurant/tuju"
  },
  {
    "name": "D.O.M.",
    "year": 2019,
    "latitude": -23.56618,
    "longitude": -46.66742,
    "city": "São Paulo - 01411",
    "region": "Sao Paulo",
    "zipCode": "011",
    "cuisine": "creative",
    "price": "$$$$$",
    "url": "https://guide.michelin.com/br/en/sao-paulo-region/sao-paulo/restaurant/d-o-m"
  },
  {
    "name": "Kojima",
    "year": 2019,
    "latitude": 37.52559,
    "longitude": 127.04193,
    "city": "Seoul",
    "region": "South Korea",
    "zipCode": "N/A",
    "cuisine": "Sushi",
    "price": "$$$$$",
    "url": "https://guide.michelin.com/kr/en/seoul-capital-area/kr-seoul/restaurant/kojima"
  },
  {
    "name": "Jungsik",
    "year": 2019,
    "latitude": 37.525585,
    "longitude": 127.04107,
    "city": "Seoul",
    "region": "South Korea",
    "zipCode": "N/A",
    "cuisine": "Korean contemporary",
    "price": "$$$",
    "url": "https://guide.michelin.com/kr/en/seoul-capital-area/kr-seoul/restaurant/jungsik511965"
  },
  {
    "name": "Kwonsooksoo",
    "year": 2019,
    "latitude": 37.526752,
    "longitude": 127.03571,
    "city": "Seoul",
    "region": "South Korea",
    "zipCode": "N/A",
    "cuisine": "Korean",
    "price": "$$$",
    "url": "https://guide.michelin.com/kr/en/seoul-capital-area/kr-seoul/restaurant/kwonsooksoo"
  },
  {
    "name": "Mingles",
    "year": 2019,
    "latitude": 37.52219,
    "longitude": 127.0392,
    "city": "Seoul",
    "region": "South Korea",
    "zipCode": "N/A",
    "cuisine": "Korean contemporary",
    "price": "$$$",
    "url": "https://guide.michelin.com/kr/en/seoul-capital-area/kr-seoul/restaurant/mingles"
  },
  {
    "name": "Alla Prima",
    "year": 2019,
    "latitude": 37.51844,
    "longitude": 127.03008,
    "city": "Seoul",
    "region": "South Korea",
    "zipCode": "N/A",
    "cuisine": "Innovative",
    "price": "$$$",
    "url": "https://guide.michelin.com/kr/en/seoul-capital-area/kr-seoul/restaurant/alla-prima"
  },
  {
    "name": "Waku Ghin",
    "year": 2018,
    "latitude": 1.283175,
    "longitude": 103.8598,
    "city": "Singapore",
    "region": "Singapore",
    "zipCode": "N/A",
    "cuisine": "Japanese contemporary",
    "price": "$$$$$",
    "url": "https://guide.michelin.com/sg/en/singapore-region/singapore/restaurant/waku-ghin"
  },
  {
    "name": "Odette",
    "year": 2018,
    "latitude": 1.2896459,
    "longitude": 103.8516,
    "city": "Singapore",
    "region": "Singapore",
    "zipCode": "N/A",
    "cuisine": "French contemporary",
    "price": "$$$$",
    "url": "https://guide.michelin.com/sg/en/singapore-region/singapore/restaurant/odette"
  },
  {
    "name": "Shoukouwa",
    "year": 2018,
    "latitude": 1.2863698,
    "longitude": 103.854,
    "city": "Singapore",
    "region": "Singapore",
    "zipCode": "N/A",
    "cuisine": "Sushi",
    "price": "$$$$$",
    "url": "https://guide.michelin.com/sg/en/singapore-region/singapore/restaurant/shoukouwa"
  },
  {
    "name": "Shisen Hanten",
    "year": 2018,
    "latitude": 1.302395,
    "longitude": 103.8365,
    "city": "Singapore",
    "region": "Singapore",
    "zipCode": "N/A",
    "cuisine": "Chinese",
    "price": "$",
    "url": "https://guide.michelin.com/sg/en/singapore-region/singapore/restaurant/shisen-hanten"
  },
  {
    "name": "Les Amis",
    "year": 2018,
    "latitude": 1.3066648,
    "longitude": 103.8314,
    "city": "Singapore",
    "region": "Singapore",
    "zipCode": "N/A",
    "cuisine": "French",
    "price": "$$$",
    "url": "https://guide.michelin.com/sg/en/singapore-region/singapore/restaurant/les-amis"
  },
  {
    "name": "Fäviken Magasinet",
    "year": 2019,
    "latitude": 63.43626,
    "longitude": 13.29337,
    "city": "Järpen",
    "region": "Sweden",
    "zipCode": "837 94",
    "cuisine": "Creative",
    "price": "$$$$",
    "url": "https://guide.michelin.com/se/en/jamtland/jarpen/restaurant/faviken-magasinet"
  },
  {
    "name": "Gastrologik",
    "year": 2019,
    "latitude": 59.33365,
    "longitude": 18.0807,
    "city": "Stockholm",
    "region": "Sweden",
    "zipCode": "114 51",
    "cuisine": "Creative",
    "price": "$$$$",
    "url": "https://guide.michelin.com/se/en/stockholm-region/stockholm/restaurant/gastrologik"
  },
  {
    "name": "Oaxen Krog",
    "year": 2019,
    "latitude": 59.322342,
    "longitude": 18.101831,
    "city": "Stockholm",
    "region": "Sweden",
    "zipCode": 11521,
    "cuisine": "Creative",
    "price": "$$$$",
    "url": "https://guide.michelin.com/se/en/stockholm-region/stockholm/restaurant/oaxen-krog"
  },
  {
    "name": "Vollmers",
    "year": 2019,
    "latitude": 55.604427,
    "longitude": 12.995848,
    "city": "Malmö",
    "region": "Sweden",
    "zipCode": 21133,
    "cuisine": "Creative",
    "price": "$$$$",
    "url": "https://guide.michelin.com/se/en/skane/malmo/restaurant/vollmers"
  },
  {
    "name": "Daniel Berlin",
    "year": 2019,
    "latitude": 55.61246,
    "longitude": 13.99265,
    "city": "Skåne-Tranås",
    "region": "Sweden",
    "zipCode": "273 92",
    "cuisine": "Creative",
    "price": "$$$$",
    "url": "https://guide.michelin.com/se/en/skane/skane-tranas/restaurant/daniel-berlin"
  },
  {
    "name": "RAW",
    "year": 2019,
    "latitude": 25.082666,
    "longitude": 121.559525,
    "city": "Taipei",
    "region": "Taipei",
    "zipCode": 110,
    "cuisine": "Innovative",
    "price": "$$$",
    "url": "https://guide.michelin.com/tw/en/taipei-region/taipei/restaurant/raw"
  },
  {
    "name": "Shoun RyuGin",
    "year": 2019,
    "latitude": 25.08258,
    "longitude": 121.5595,
    "city": "Taipei",
    "region": "Taipei",
    "zipCode": 110,
    "cuisine": "Japanese contemporary",
    "price": "$$$$",
    "url": "https://guide.michelin.com/tw/en/taipei-region/taipei/restaurant/shoun-ryugin"
  },
  {
    "name": "Taïrroir",
    "year": 2019,
    "latitude": 25.082718,
    "longitude": 121.559296,
    "city": "Taipei",
    "region": "Taipei",
    "zipCode": 110,
    "cuisine": "Innovative",
    "price": "$$$",
    "url": "https://guide.michelin.com/tw/en/taipei-region/taipei/restaurant/tairroir"
  },
  {
    "name": "Sushi Amamoto",
    "year": 2019,
    "latitude": 25.037945,
    "longitude": 121.55487,
    "city": "Taipei",
    "region": "Taipei",
    "zipCode": 110,
    "cuisine": "Sushi",
    "price": "$$$$",
    "url": "https://guide.michelin.com/tw/en/taipei-region/taipei/restaurant/sushi-amamoto"
  },
  {
    "name": "The Guest House",
    "year": 2019,
    "latitude": 25.04486,
    "longitude": 121.52198,
    "city": "Taipei",
    "region": "Taipei",
    "zipCode": 110,
    "cuisine": "Sichuan-Huai Yang",
    "price": "$$",
    "url": "https://guide.michelin.com/tw/en/taipei-region/taipei/restaurant/the-guest-house"
  },
  {
    "name": "Gaggan",
    "year": 2019,
    "latitude": 13.737679,
    "longitude": 100.542145,
    "city": "Bangkok",
    "region": "Thailand",
    "zipCode": "N/A",
    "cuisine": "Innovative",
    "price": "$$$$$",
    "url": "https://guide.michelin.com/th/en/bangkok-region/bangkok/restaurant/gaggan"
  },
  {
    "name": "Sühring",
    "year": 2019,
    "latitude": 13.710947,
    "longitude": 100.545654,
    "city": "Bangkok",
    "region": "Thailand",
    "zipCode": "N/A",
    "cuisine": "European contemporary",
    "price": "$$$$",
    "url": "https://guide.michelin.com/th/en/bangkok-region/bangkok/restaurant/suhring"
  },
  {
    "name": "Mezzaluna",
    "year": 2019,
    "latitude": 13.722148,
    "longitude": 100.51691,
    "city": "Bangkok",
    "region": "Thailand",
    "zipCode": "N/A",
    "cuisine": "Innovative",
    "price": "$$$$$",
    "url": "https://guide.michelin.com/th/en/bangkok-region/bangkok/restaurant/mezzaluna"
  },
  {
    "name": "Le Normandie",
    "year": 2019,
    "latitude": 13.723197,
    "longitude": 100.513855,
    "city": "Bangkok",
    "region": "Thailand",
    "zipCode": "N/A",
    "cuisine": "French contemporary",
    "price": "$$$$",
    "url": "https://guide.michelin.com/th/en/bangkok-region/bangkok/restaurant/le-normandie"
  },
  {
    "name": "minibar",
    "year": 2019,
    "latitude": 38.896294,
    "longitude": -77.02386,
    "city": "Washington, D.C.",
    "region": "Washington DC",
    "zipCode": 20004,
    "cuisine": "Contemporary",
    "price": "$$$$",
    "url": "https://guide.michelin.com/us/en/washington/washington-dc/restaurant/minibar"
  },
  {
    "name": "Pineapple and Pearls",
    "year": 2019,
    "latitude": 38.880707,
    "longitude": -76.99514,
    "city": "Washington, D.C.",
    "region": "Washington DC",
    "zipCode": 20003,
    "cuisine": "Contemporary",
    "price": "$$$$",
    "url": "https://guide.michelin.com/us/en/washington/washington-dc/restaurant/pineapple-and-pearls"
  },
  {
    "name": "Andrew Fairlie at Gleneagles",
    "year": 2019,
    "latitude": 56.28339,
    "longitude": -3.75149,
    "city": "Auchterarder",
    "region": "United Kingdom",
    "zipCode": "PH3 1NF",
    "cuisine": "Creative French",
    "price": "N/A",
    "url": "https://guide.michelin.com/gb/en/perth-and-kinross/auchterarder/restaurant/andrew-fairlie-at-gleneagles"
  },
  {
    "name": "L'Enclume",
    "year": 2019,
    "latitude": 54.201885,
    "longitude": -2.953807,
    "city": "Cartmel",
    "region": "United Kingdom",
    "zipCode": "LA11 6PZ",
    "cuisine": "Creative",
    "price": "N/A",
    "url": "https://guide.michelin.com/gb/en/cumbria/cartmel/restaurant/l-enclume"
  },
  {
    "name": "Raby Hunt",
    "year": 2019,
    "latitude": 54.56647,
    "longitude": -1.689258,
    "city": "Summerhouse",
    "region": "United Kingdom",
    "zipCode": "DL2 3UD",
    "cuisine": "Modern British",
    "price": "N/A",
    "url": "https://guide.michelin.com/gb/en/darlington/summerhouse/restaurant/raby-hunt"
  },
  {
    "name": "Moor Hall",
    "year": 2019,
    "latitude": 53.54162,
    "longitude": -2.8895495,
    "city": "Aughton",
    "region": "United Kingdom",
    "zipCode": "L39 6RT",
    "cuisine": "Modern British",
    "price": "N/A",
    "url": "https://guide.michelin.com/gb/en/lancashire/aughton/restaurant/moor-hall"
  },
  {
    "name": "Restaurant Sat Bains",
    "year": 2019,
    "latitude": 52.92438,
    "longitude": -1.1733198,
    "city": "Nottingham",
    "region": "United Kingdom",
    "zipCode": "NG7 2SA",
    "cuisine": "Creative",
    "price": "N/A",
    "url": "https://guide.michelin.com/gb/en/nottingham/nottingham/restaurant/restaurant-sat-bains"
  },
  {
    "name": "Restaurant Nathan Outlaw",
    "year": 2019,
    "latitude": 50.594086,
    "longitude": -4.82854,
    "city": "Port Isaac",
    "region": "United Kingdom",
    "zipCode": "PL29 3SB",
    "cuisine": "Seafood",
    "price": "N/A",
    "url": "https://guide.michelin.com/gb/en/cornwall/port-isaac/restaurant/restaurant-nathan-outlaw"
  },
  {
    "name": "Belmond Le Manoir aux Quat' Saisons",
    "year": 2019,
    "latitude": 51.71674,
    "longitude": -1.09187,
    "city": "Great Milton",
    "region": "United Kingdom",
    "zipCode": "OX44 7PD",
    "cuisine": "French",
    "price": "N/A",
    "url": "https://guide.michelin.com/gb/en/oxfordshire/great-milton/restaurant/belmond-le-manoir-aux-quat-saisons"
  },
  {
    "name": "Midsummer House",
    "year": 2019,
    "latitude": 52.21243,
    "longitude": 0.12779,
    "city": "Cambridge",
    "region": "United Kingdom",
    "zipCode": "CB4 1HA",
    "cuisine": "Modern cuisine",
    "price": "N/A",
    "url": "https://guide.michelin.com/gb/en/cambridgeshire/cambridge/restaurant/midsummer-house"
  },
  {
    "name": "Hand and Flowers",
    "year": 2019,
    "latitude": 51.57031,
    "longitude": -0.78113,
    "city": "Marlow",
    "region": "United Kingdom",
    "zipCode": "SL7 2BP",
    "cuisine": "Modern British",
    "price": "N/A",
    "url": "https://guide.michelin.com/gb/en/buckinghamshire/marlow/restaurant/hand-and-flowers"
  },
  {
    "name": "Ledbury",
    "year": 2019,
    "latitude": 51.51674,
    "longitude": -0.20007,
    "city": "North Kensington",
    "region": "United Kingdom",
    "zipCode": "W11 2AQ",
    "cuisine": "Modern cuisine",
    "price": "N/A",
    "url": "https://guide.michelin.com/gb/en/greater-london/north-kensington/restaurant/ledbury"
  },
  {
    "name": "CORE by Clare Smyth",
    "year": 2019,
    "latitude": 51.51261,
    "longitude": -0.2030516,
    "city": "North Kensington",
    "region": "United Kingdom",
    "zipCode": "W11 2PN",
    "cuisine": "Modern British",
    "price": "N/A",
    "url": "https://guide.michelin.com/gb/en/greater-london/north-kensington/restaurant/core-by-clare-smyth"
  },
  {
    "name": "Le Gavroche",
    "year": 2019,
    "latitude": 51.51127,
    "longitude": -0.15517,
    "city": "Mayfair",
    "region": "United Kingdom",
    "zipCode": "W1K 7QR",
    "cuisine": "French",
    "price": "N/A",
    "url": "https://guide.michelin.com/gb/en/greater-london/mayfair/restaurant/le-gavroche"
  },
  {
    "name": "Kitchen Table at Bubbledogs",
    "year": 2019,
    "latitude": 51.52041,
    "longitude": -0.13647,
    "city": "Bloomsbury",
    "region": "United Kingdom",
    "zipCode": "W1T 4QG",
    "cuisine": "Modern cuisine",
    "price": "N/A",
    "url": "https://guide.michelin.com/gb/en/greater-london/bloomsbury/restaurant/kitchen-table-at-bubbledogs"
  },
  {
    "name": "Hélène Darroze at The Connaught",
    "year": 2019,
    "latitude": 51.5101,
    "longitude": -0.1495701,
    "city": "Mayfair",
    "region": "United Kingdom",
    "zipCode": "W1K 2AL",
    "cuisine": "Modern cuisine",
    "price": "N/A",
    "url": "https://guide.michelin.com/gb/en/greater-london/mayfair/restaurant/helene-darroze-at-the-connaught"
  },
  {
    "name": "Dinner by Heston Blumenthal",
    "year": 2019,
    "latitude": 51.50208,
    "longitude": -0.16011,
    "city": "Hyde Park",
    "region": "United Kingdom",
    "zipCode": "SW1X 7LA",
    "cuisine": "Traditional British",
    "price": "N/A",
    "url": "https://guide.michelin.com/gb/en/greater-london/hyde-park/restaurant/dinner-by-heston-blumenthal"
  },
  {
    "name": "Umu",
    "year": 2019,
    "latitude": 51.5113,
    "longitude": -0.14455,
    "city": "Mayfair",
    "region": "United Kingdom",
    "zipCode": "W1J 6LX",
    "cuisine": "Japanese",
    "price": "N/A",
    "url": "https://guide.michelin.com/gb/en/greater-london/mayfair/restaurant/umu"
  },
  {
    "name": "Sketch (The Lecture Room & Library)",
    "year": 2019,
    "latitude": 51.51287,
    "longitude": -0.14136,
    "city": "Mayfair",
    "region": "United Kingdom",
    "zipCode": "W1S 2XG",
    "cuisine": "Modern French",
    "price": "N/A",
    "url": "https://guide.michelin.com/gb/en/greater-london/mayfair/restaurant/sketch-the-lecture-room-library"
  },
  {
    "name": "Greenhouse",
    "year": 2019,
    "latitude": 51.50769,
    "longitude": -0.14926,
    "city": "Mayfair",
    "region": "United Kingdom",
    "zipCode": "W1J 5NY",
    "cuisine": "Creative",
    "price": "N/A",
    "url": "https://guide.michelin.com/gb/en/greater-london/mayfair/restaurant/greenhouse69393"
  },
  {
    "name": "Claude Bosi at Bibendum",
    "year": 2019,
    "latitude": 51.49341,
    "longitude": -0.1690893,
    "city": "Chelsea",
    "region": "United Kingdom",
    "zipCode": "SW3 6RD",
    "cuisine": "French",
    "price": "N/A",
    "url": "https://guide.michelin.com/gb/en/greater-london/chelsea/restaurant/claude-bosi-at-bibendum"
  }
]